{"id":"0","time":"2016-09-30 09:00:00","header":"Poziom zanieczyszczenia powietrza w Warszawie","results":{"pm_10":{"sonda4":{"current_value":"53.0 \u00b5g\/m3","day_avg_value":"39.4 \u00b5g\/m3","norm_value":"50 \u00b5g\/m3","trend":"up","state":"notbad","name":"Warszawa-Marsza\u0142kowska","location":"Warszawa, Marsza\u0142kowska 68"},"sonda1":{"current_value":"25.2 \u00b5g\/m3","day_avg_value":"25.0 \u00b5g\/m3","norm_value":"50 \u00b5g\/m3","trend":"up","state":"good","name":"Warszawa-Ursyn\u00f3w","location":"Warszawa Ursyn\u00f3w, Wokalna 1 nr dzia\u0142ki 7\/5"},"sonda3":{"current_value":"31.4 \u00b5g\/m3","day_avg_value":"35.3 \u00b5g\/m3","norm_value":"50 \u00b5g\/m3","trend":"up","state":"good","name":"Warszawa-Targ\u00f3wek","location":"Warszawa Targ\u00f3wek, Kondratowicza 8"},"sonda2":{"current_value":"80.9 \u00b5g\/m3","day_avg_value":"58.7 \u00b5g\/m3","norm_value":"50 \u00b5g\/m3","trend":"down","state":"notbad","name":"Warszawa-Komunikacyjna","location":"Warszawa, Al. Niepodleg\u0142o\u015Bci 227\/233"}},"pm_25":{"sonda4":{"current_value":"14.5 \u00b5g\/m3","day_avg_value":"13.2 \u00b5g\/m3","norm_value":"25 \u00b5g\/m3","trend":"up","state":"good","name":"Warszawa-Marsza\u0142kowska","location":"Warszawa, Marsza\u0142kowska 68"},"sonda1":{"current_value":"9.8 \u00b5g\/m3","day_avg_value":"10.0 \u00b5g\/m3","norm_value":"25 \u00b5g\/m3","trend":"down","state":"good","name":"Warszawa-Ursyn\u00f3w","location":"Warszawa Ursyn\u00f3w, Wokalna 1 nr dzia\u0142ki 7\/5"},"sonda3":{"current_value":"19.1 \u00b5g\/m3","day_avg_value":"16.5 \u00b5g\/m3","norm_value":"25 \u00b5g\/m3","trend":"up","state":"good","name":"Warszawa-Targ\u00f3wek","location":"Warszawa Targ\u00f3wek, Kondratowicza 8"},"sonda2":{"current_value":"21.1 \u00b5g\/m3","day_avg_value":"18.0 \u00b5g\/m3","norm_value":"25 \u00b5g\/m3","trend":"down","state":"good","name":"Warszawa-Komunikacyjna","location":"Warszawa, Al. Niepodleg\u0142o\u015Bci 227\/233"}}}}